[
  {
    "station_name": "機場捷運台北車站(A1)",
    "line_name": "桃園機場捷運",
    "lat": 25.0492,
    "lng": 121.5129,
    "exits": [
      {
        "exit_id": "1",
        "lat": 25.0498,
        "lng": 121.5135,
        "spots": [
          "臺北車站西側",
          "重慶北路",
          "市民大道"
        ]
      },
      {
        "exit_id": "3",
        "lat": 25.0487,
        "lng": 121.5115,
        "spots": [
          "北門站轉乘通道",
          "鄭州路",
          "延平北路"
        ]
      }
    ]
  },
  {
    "station_name": "三重站(A2)",
    "line_name": "桃園機場捷運/中和新蘆線",
    "lat": 25.0551,
    "lng": 121.4842,
    "exits": [
      {
        "exit_id": "1A",
        "lat": 25.0554,
        "lng": 121.4845,
        "spots": [
          "新北大都會公園",
          "三重疏洪親水公園"
        ]
      },
      {
        "exit_id": "1",
        "lat": 25.0548,
        "lng": 121.4838,
        "spots": [
          "捷運中和新蘆線轉乘",
          "捷運路"
        ]
      }
    ]
  },
  {
    "station_name": "新北產業園區站(A3)",
    "line_name": "桃園機場捷運/環狀線",
    "lat": 25.0615,
    "lng": 121.4595,
    "exits": [
      {
        "exit_id": "1",
        "lat": 25.0618,
        "lng": 121.4599,
        "spots": [
          "新北產業園區",
          "五工路",
          "新北大道"
        ]
      }
    ]
  },
  {
    "station_name": "機場第一航廈(A12)",
    "line_name": "桃園機場捷運",
    "lat": 25.0827,
    "lng": 121.2415,
    "exits": [
      {
        "exit_id": "1",
        "lat": 25.0827,
        "lng": 121.2415,
        "spots": [
          "桃園國際機場第一航廈入境大廳",
          "美食廣場",
          "巴士乘車處"
        ]
      }
    ]
  },
  {
    "station_name": "機場第二航廈(A13)",
    "line_name": "桃園機場捷運",
    "lat": 25.0792,
    "lng": 121.2381,
    "exits": [
      {
        "exit_id": "1",
        "lat": 25.0792,
        "lng": 121.2381,
        "spots": [
          "桃園國際機場第二航廈",
          "觀景台",
          "機場旅館"
        ]
      }
    ]
  },
  {
    "station_name": "高鐵桃園站(A18)",
    "line_name": "桃園機場捷運",
    "lat": 25.0131,
    "lng": 121.2147,
    "exits": [
      {
        "exit_id": "1",
        "lat": 25.0135,
        "lng": 121.2152,
        "spots": [
          "高鐵桃園站大廳",
          "華泰名品城 GLORIA OUTLETS"
        ]
      },
      {
        "exit_id": "2",
        "lat": 25.0126,
        "lng": 121.2141,
        "spots": [
          "桃園置地廣場",
          "Xpark 水族館",
          "桃園棒球場接駁處"
        ]
      }
    ]
  },
  {
    "station_name": "環北站(A21)",
    "line_name": "桃園機場捷運",
    "lat": 24.9674,
    "lng": 121.2239,
    "exits": [
      {
        "exit_id": "1",
        "lat": 24.9678,
        "lng": 121.2243,
        "spots": [
          "中壢區公所",
          "中壢觀光夜市",
          "環北路"
        ]
      }
    ]
  },
  {
    "station_name": "台北車站",
    "line_name": "板南線/淡水信義線",
    "lat": 25.0478,
    "lng": 121.517,
    "exits": [
      {
        "exit_id": "M1",
        "lat": 25.0483,
        "lng": 121.5175,
        "spots": [
          "Y區地下街",
          "臺北轉運站",
          "市民大道"
        ]
      },
      {
        "exit_id": "M3",
        "lat": 25.0472,
        "lng": 121.5178,
        "spots": [
          "天成大飯店",
          "COSMO 廣場",
          "微風台北車站"
        ]
      },
      {
        "exit_id": "M7",
        "lat": 25.0468,
        "lng": 121.5188,
        "spots": [
          "中山北路",
          "行政院",
          "台北中正郵局"
        ]
      }
    ]
  },
  {
    "station_name": "西門",
    "line_name": "板南線/松山新店線",
    "lat": 25.0422,
    "lng": 121.5085,
    "exits": [
      {
        "exit_id": "1",
        "lat": 25.0425,
        "lng": 121.5078,
        "spots": [
          "西門紅樓",
          "漢中街",
          "內江街"
        ]
      },
      {
        "exit_id": "6",
        "lat": 25.0418,
        "lng": 121.5082,
        "spots": [
          "西門町徒步區",
          "誠品西門",
          "真善美劇院"
        ]
      }
    ]
  },
  {
    "station_name": "忠孝復興",
    "line_name": "板南線/文湖線",
    "lat": 25.0416,
    "lng": 121.5438,
    "exits": [
      {
        "exit_id": "1",
        "lat": 25.0421,
        "lng": 121.5431,
        "spots": [
          "安東街",
          "遼寧街",
          "正義郵局"
        ]
      },
      {
        "exit_id": "2",
        "lat": 25.0411,
        "lng": 121.5442,
        "spots": [
          "遠東SOGO百貨復興館",
          "忠孝東路三段"
        ]
      }
    ]
  },
  {
    "station_name": "市政府",
    "line_name": "板南線",
    "lat": 25.0412,
    "lng": 121.5652,
    "exits": [
      {
        "exit_id": "2",
        "lat": 25.0416,
        "lng": 121.5645,
        "spots": [
          "市府轉運站",
          "統一時代百貨",
          "信義誠品"
        ]
      },
      {
        "exit_id": "3",
        "lat": 25.0408,
        "lng": 121.5658,
        "spots": [
          "微風信義",
          "新光三越A4",
          "信義商圈"
        ]
      }
    ]
  },
  {
    "station_name": "板橋",
    "line_name": "板南線/環狀線",
    "lat": 25.0133,
    "lng": 121.4624,
    "exits": [
      {
        "exit_id": "1",
        "lat": 25.0139,
        "lng": 121.4619,
        "spots": [
          "新北市政府",
          "板橋車站轉運站",
          "市民廣場"
        ]
      },
      {
        "exit_id": "3",
        "lat": 25.0125,
        "lng": 121.4632,
        "spots": [
          "板橋火車站大廳",
          "環球購物中心板橋店"
        ]
      }
    ]
  },
  {
    "station_name": "淡水",
    "line_name": "淡水信義線",
    "lat": 25.1678,
    "lng": 121.4456,
    "exits": [
      {
        "exit_id": "1",
        "lat": 25.1675,
        "lng": 121.4452,
        "spots": [
          "淡水老街",
          "金色水岸",
          "淡水渡船頭"
        ]
      },
      {
        "exit_id": "2",
        "lat": 25.1683,
        "lng": 121.4461,
        "spots": [
          "淡水公車總站",
          "學府路",
          "鄧公國小"
        ]
      }
    ]
  },
  {
    "station_name": "台北101/世貿",
    "line_name": "淡水信義線",
    "lat": 25.0332,
    "lng": 121.5644,
    "exits": [
      {
        "exit_id": "1",
        "lat": 25.0336,
        "lng": 121.5638,
        "spots": [
          "世貿展覽一館",
          "台北國際會議中心"
        ]
      },
      {
        "exit_id": "4",
        "lat": 25.0328,
        "lng": 121.5648,
        "spots": [
          "台北101購物中心",
          "鼎泰豐101店",
          "信義路四段"
        ]
      }
    ]
  },
  {
    "station_name": "蘆洲",
    "line_name": "中和新蘆線",
    "lat": 25.0915,
    "lng": 121.4648,
    "exits": [
      {
        "exit_id": "1",
        "lat": 25.092,
        "lng": 121.4652,
        "spots": [
          "蘆洲國民運動中心",
          "三民高中",
          "線形公園"
        ]
      },
      {
        "exit_id": "3",
        "lat": 25.0911,
        "lng": 121.4643,
        "spots": [
          "蘆洲李宅古蹟",
          "柳堤公園",
          "中正路"
        ]
      }
    ]
  }
]
